,roll,pitch,yaw,throttle,elapsed,timestamp
0,1500,1500,1500,885,0.016,1681843398.91
1,1500,1500,1500,885,0.016,1681843398.99
2,1500,1500,1500,885,0.016,1681843399.07
3,1500,1500,1500,885,0.016,1681843399.15
4,1500,1500,1500,885,0.016,1681843399.23
5,1500,1500,1500,885,0.015,1681843399.31
6,1500,1500,1500,885,0.015,1681843399.39
7,1500,1500,1500,885,0.015,1681843399.47
8,,,,,,
9,-211,-368,244,-19,0.001,1681843399.57
10,,,,,,
11,1500,1500,1500,885,0.016,1681843399.73
12,1500,1500,1500,885,0.015,1681843399.80
13,1500,1500,1500,885,0.015,1681843399.89
14,1500,1500,1500,885,0.015,1681843399.97
15,1500,1500,1500,885,0.015,1681843400.05
16,1500,1500,1500,885,0.016,1681843400.13
17,1500,1500,1500,885,0.016,1681843400.21
18,1500,1500,1500,885,0.016,1681843400.29
19,1500,1500,1500,885,0.015,1681843400.36
20,1500,1500,1500,885,0.015,1681843400.44
21,1500,1500,1500,885,0.015,1681843400.52
22,1500,1500,1500,885,0.015,1681843400.60
23,1500,1500,1500,885,0.015,1681843400.68
24,1500,1500,1500,885,0.015,1681843400.77
25,1500,1500,1500,885,0.015,1681843400.85
26,1500,1500,1500,885,0.015,1681843400.93
27,1500,1500,1500,885,0.016,1681843401.01
28,,,,,,
29,,,,,,
30,,,,,,
31,,,,,,
32,1500,1500,1500,885,0.015,1681843401.28
33,1500,1500,1500,885,0.015,1681843401.36
34,1500,1500,1500,885,0.016,1681843401.44
35,1500,1500,1500,885,0.016,1681843401.52
36,1500,1500,1500,885,0.015,1681843401.60
37,1500,1500,1500,885,0.015,1681843401.68
38,1500,1500,1500,885,0.016,1681843401.76
39,1500,1500,1500,885,0.016,1681843401.84
40,1500,1500,1500,885,0.016,1681843401.92
41,1500,1500,1500,885,0.016,1681843402.00
42,1500,1500,1500,885,0.016,1681843402.08
43,1500,1500,1500,885,0.015,1681843402.16
44,1500,1500,1500,885,0.015,1681843402.24
45,1500,1500,1500,885,0.016,1681843402.32
46,1500,1500,1500,885,0.016,1681843402.40
47,1500,1500,1500,885,0.016,1681843402.48
48,1500,1500,1500,885,0.016,1681843402.56
49,1500,1500,1500,885,0.016,1681843402.64
50,1500,1500,1500,885,0.016,1681843402.72
51,1500,1500,1500,885,0.015,1681843402.80
52,1500,1500,1500,885,0.015,1681843402.88
53,1500,1500,1500,885,0.015,1681843402.96
54,1500,1500,1500,885,0.016,1681843403.04
55,1500,1500,1500,885,0.015,1681843403.12
56,1500,1500,1500,885,0.015,1681843403.20
57,1500,1500,1500,885,0.015,1681843403.28
58,1500,1500,1500,885,0.015,1681843403.36
59,1500,1500,1500,885,0.016,1681843403.44
60,1500,1500,1500,885,0.015,1681843403.52
61,1500,1500,1500,885,0.015,1681843403.60
62,1500,1500,1500,885,0.016,1681843403.68
63,1500,1500,1500,885,0.016,1681843403.76
64,1500,1500,1500,885,0.016,1681843403.84
65,1500,1500,1500,885,0.015,1681843403.92
66,,,,,,
67,1500,1500,1500,885,0.015,1681843404.06
68,1500,1500,1500,885,0.015,1681843404.14
69,1500,1500,1500,885,0.016,1681843404.22
70,1500,1500,1500,885,0.016,1681843404.30
71,1500,1500,1500,885,0.015,1681843404.38
72,1500,1500,1500,885,0.015,1681843404.46
73,1500,1500,1500,885,0.016,1681843404.54
74,1500,1500,1500,885,0.016,1681843404.62
75,1500,1500,1500,885,0.015,1681843404.70
76,1500,1500,1500,885,0.015,1681843404.78
77,1500,1500,1500,885,0.016,1681843404.86
78,1500,1500,1500,885,0.016,1681843404.94
79,1500,1500,1500,885,0.016,1681843405.02
80,1500,1500,1500,885,0.016,1681843405.10
81,1500,1500,1500,885,0.015,1681843405.18
82,1500,1500,1500,885,0.015,1681843405.26
83,1500,1500,1500,885,0.015,1681843405.34
84,1500,1500,1500,885,0.016,1681843405.42
85,,,,,,
86,,,,,,
87,1500,1500,1500,885,0.016,1681843405.63
88,1500,1500,1500,885,0.015,1681843405.71
89,1500,1500,1500,885,0.015,1681843405.79
90,1500,1500,1500,885,0.016,1681843405.87
91,1500,1500,1500,885,0.016,1681843405.95
92,1500,1500,1500,885,0.016,1681843406.03
93,1500,1500,1500,885,0.016,1681843406.11
94,1500,1500,1500,885,0.016,1681843406.19
95,1500,1500,1500,885,0.015,1681843406.27
96,1500,1500,1500,885,0.016,1681843406.35
97,1500,1500,1500,885,0.016,1681843406.43
98,1500,1500,1500,885,0.016,1681843406.51
99,1500,1500,1500,885,0.016,1681843406.59
100,1500,1500,1500,885,0.015,1681843406.67
101,1500,1500,1500,885,0.015,1681843406.75
102,1500,1500,1500,885,0.016,1681843406.83
103,1500,1500,1500,885,0.016,1681843406.91
104,1500,1500,1500,885,0.016,1681843406.99
105,1500,1500,1500,885,0.015,1681843407.07
106,1500,1500,1500,885,0.015,1681843407.15
107,1500,1500,1500,885,0.016,1681843407.23
108,1500,1500,1500,885,0.016,1681843407.31
109,1500,1500,1500,885,0.016,1681843407.39
110,1500,1500,1500,885,0.015,1681843407.47
111,1500,1500,1500,885,0.016,1681843407.55
112,1500,1500,1500,885,0.016,1681843407.63
113,1500,1500,1500,885,0.016,1681843407.71
114,1500,1500,1500,885,0.015,1681843407.79
115,1500,1500,1500,885,0.016,1681843407.87
116,1500,1500,1500,885,0.016,1681843407.95
117,1500,1500,1500,885,0.016,1681843408.03
118,1500,1500,1500,885,0.015,1681843408.11
119,1500,1500,1500,885,0.015,1681843408.19
120,1500,1500,1500,885,0.016,1681843408.27
121,1500,1500,1500,885,0.016,1681843408.35
122,1500,1500,1500,885,0.016,1681843408.43
123,,,,,,
124,,,,,,
125,,,,,,
126,,,,,,
127,-110,15,563,-478,0.016,1681843408.64
128,,,,,,
129,,,,,,
130,1500,1500,1500,885,0.015,1681843408.88
131,1500,1500,1500,885,0.015,1681843408.96
132,1500,1500,1500,885,0.016,1681843409.04
133,1500,1500,1500,885,0.016,1681843409.12
134,1500,1500,1500,885,0.016,1681843409.20
135,1500,1500,1500,885,0.016,1681843409.28
136,1500,1500,1500,885,0.015,1681843409.36
137,1500,1500,1500,885,0.015,1681843409.44
138,1500,1500,1500,885,0.015,1681843409.52
139,1500,1500,1500,885,0.016,1681843409.60
140,1500,1500,1500,885,0.016,1681843409.68
141,1500,1500,1500,885,0.016,1681843409.76
142,,,,,,
143,,,,,,
144,-159,-43,450,377,0.015,1681843409.92
145,,,,,,
146,1500,1500,1500,885,0.015,1681843410.08
147,1500,1500,1500,885,0.015,1681843410.16
148,1500,1500,1500,885,0.016,1681843410.24
149,1500,1500,1500,885,0.016,1681843410.32
150,1500,1500,1500,885,0.016,1681843410.40
151,1500,1500,1500,885,0.015,1681843410.48
152,1500,1500,1500,885,0.015,1681843410.56
153,1500,1500,1500,885,0.016,1681843410.64
154,1500,1500,1500,885,0.016,1681843410.72
155,1500,1500,1500,885,0.016,1681843410.80
156,1500,1500,1500,885,0.016,1681843410.88
157,1500,1500,1500,885,0.015,1681843410.96
158,1500,1500,1500,885,0.015,1681843411.04
159,1500,1500,1500,885,0.015,1681843411.12
160,1500,1500,1500,885,0.016,1681843411.20
161,1500,1500,1500,885,0.016,1681843411.28
162,,,,,,
163,,,,,,
164,-96,-73,479,-149,0.016,1681843411.41
165,,,,,,
166,1500,1500,1500,885,0.016,1681843411.57
167,1500,1500,1500,885,0.016,1681843411.65
168,1500,1500,1500,885,0.016,1681843411.73
169,1500,1500,1500,885,0.016,1681843411.81
170,1500,1500,1500,885,0.016,1681843411.89
171,1500,1500,1500,885,0.016,1681843411.97
172,1500,1500,1500,885,0.016,1681843412.05
173,1500,1500,1500,885,0.016,1681843412.13
174,1500,1500,1500,885,0.016,1681843412.21
175,1500,1500,1500,885,0.016,1681843412.29
176,1500,1500,1500,885,0.016,1681843412.37
177,1500,1500,1500,885,0.016,1681843412.45
178,1500,1500,1500,885,0.016,1681843412.53
179,1500,1500,1500,885,0.016,1681843412.61
180,1500,1500,1500,885,0.016,1681843412.69
181,1500,1500,1500,885,0.016,1681843412.77
182,1500,1500,1500,885,0.016,1681843412.85
183,1500,1500,1500,885,0.016,1681843412.93
184,1500,1500,1500,885,0.016,1681843413.01
185,1500,1500,1500,885,0.016,1681843413.09
186,1500,1500,1500,885,0.016,1681843413.17
187,1500,1500,1500,885,0.016,1681843413.25
188,1500,1500,1500,885,0.016,1681843413.33
189,1500,1500,1500,885,0.016,1681843413.41
190,1500,1500,1500,885,0.016,1681843413.49
191,1500,1500,1500,885,0.016,1681843413.57
192,1500,1500,1500,885,0.016,1681843413.65
193,1500,1500,1500,885,0.016,1681843413.73
194,1500,1500,1500,885,0.016,1681843413.81
195,1500,1500,1500,885,0.016,1681843413.89
196,1500,1500,1500,885,0.016,1681843413.97
197,1500,1500,1500,885,0.016,1681843414.05
198,1500,1500,1500,885,0.016,1681843414.13
199,1500,1500,1500,885,0.016,1681843414.21
200,,,,,,
201,1500,1500,1500,885,0.016,1681843414.35
202,1500,1500,1500,885,0.016,1681843414.43
203,1500,1500,1500,885,0.016,1681843414.51
204,1500,1500,1500,885,0.016,1681843414.59
205,1500,1500,1500,885,0.016,1681843414.67
206,1500,1500,1500,885,0.016,1681843414.75
207,1500,1500,1500,885,0.016,1681843414.83
208,1500,1500,1500,885,0.016,1681843414.91
209,1500,1500,1500,885,0.016,1681843414.99
210,1500,1500,1500,885,0.016,1681843415.07
211,1500,1500,1500,885,0.016,1681843415.15
212,1500,1500,1500,885,0.016,1681843415.23
213,1500,1500,1500,885,0.016,1681843415.31
214,1500,1500,1500,885,0.016,1681843415.39
215,1500,1500,1500,885,0.016,1681843415.47
216,1500,1500,1500,885,0.016,1681843415.55
217,1500,1500,1500,885,0.016,1681843415.63
218,1500,1500,1500,885,0.016,1681843415.71
219,,,,,,
220,-174,-194,418,58,0.016,1681843415.81
221,,,,,,
222,1500,1500,1500,885,0.016,1681843415.97
223,1500,1500,1500,885,0.016,1681843416.05
224,1500,1500,1500,885,0.016,1681843416.13
225,1500,1500,1500,885,0.016,1681843416.21
226,1500,1500,1500,885,0.016,1681843416.29
227,1500,1500,1500,885,0.016,1681843416.37
228,1500,1500,1500,885,0.016,1681843416.45
229,1500,1500,1500,885,0.016,1681843416.53
230,1500,1500,1500,885,0.016,1681843416.61
231,1500,1500,1500,885,0.016,1681843416.69
232,1500,1500,1500,885,0.016,1681843416.77
233,1500,1500,1500,885,0.016,1681843416.85
234,1500,1500,1500,885,0.016,1681843416.93
235,1500,1500,1500,885,0.016,1681843417.01
236,1500,1500,1500,885,0.016,1681843417.09
237,1500,1500,1500,885,0.016,1681843417.17
238,,,,,,
239,1500,1500,1500,885,0.016,1681843417.31
240,1500,1500,1500,885,0.016,1681843417.39
241,1500,1500,1500,885,0.016,1681843417.47
242,1500,1500,1500,885,0.016,1681843417.55
243,1500,1500,1500,885,0.016,1681843417.63
244,1500,1500,1500,885,0.016,1681843417.71
245,1500,1500,1500,885,0.016,1681843417.79
246,1500,1500,1500,885,0.016,1681843417.87
247,1500,1500,1500,885,0.016,1681843417.95
248,1500,1500,1500,885,0.016,1681843418.03
249,1500,1500,1500,885,0.016,1681843418.11
250,1500,1500,1500,885,0.016,1681843418.19
251,1500,1500,1500,885,0.016,1681843418.27
252,1500,1500,1500,885,0.016,1681843418.35
253,1500,1500,1500,885,0.016,1681843418.43
254,1500,1500,1500,885,0.016,1681843418.51
255,1500,1500,1500,885,0.016,1681843418.59
256,1500,1500,1500,885,0.016,1681843418.67
257,,,,,,
258,,,,,,
259,,,,,,
260,,,,,,
261,1500,1500,1500,885,0.016,1681843418.86
262,,,,,,
263,-14,-13,493,8,0.016,1681843419.02
264,,,,,,
265,1500,1500,1500,885,0.015,1681843419.18
266,1500,1500,1500,885,0.016,1681843419.26
267,1500,1500,1500,885,0.016,1681843419.34
268,1500,1500,1500,885,0.016,1681843419.42
269,1500,1500,1500,885,0.016,1681843419.50
270,1500,1500,1500,885,0.016,1681843419.58
271,1500,1500,1500,885,0.016,1681843419.66
272,1500,1500,1500,885,0.016,1681843419.74
273,1500,1500,1500,885,0.016,1681843419.82
274,1500,1500,1500,885,0.016,1681843419.90
275,1500,1500,1500,885,0.016,1681843419.98
276,,,,,,
277,,,,,,
278,1500,1500,1500,885,0.016,1681843420.13
279,,,,,,
280,1500,1500,1500,885,0.016,1681843420.29
281,1500,1500,1500,885,0.016,1681843420.37
282,1500,1500,1500,885,0.016,1681843420.45
283,1500,1500,1500,885,0.016,1681843420.53
284,1500,1500,1500,885,0.016,1681843420.61
285,1500,1500,1500,885,0.016,1681843420.69
286,1500,1500,1500,885,0.016,1681843420.77
287,1500,1500,1500,885,0.016,1681843420.85
288,1500,1500,1500,885,0.016,1681843420.93
289,1500,1500,1500,885,0.016,1681843421.01
290,1500,1500,1500,885,0.016,1681843421.09
291,1500,1500,1500,885,0.016,1681843421.17
292,1500,1500,1500,885,0.016,1681843421.25
293,1500,1500,1500,885,0.016,1681843421.33
294,1500,1500,1500,885,0.016,1681843421.41
295,1500,1500,1500,885,0.016,1681843421.49
296,,,,,,
297,,,,,,
298,,,,,,
299,,,,,,
300,1500,1500,1500,885,0.016,1681843421.76
301,1500,1500,1500,885,0.016,1681843421.84
302,1500,1500,1500,885,0.016,1681843421.92
303,1500,1500,1500,885,0.016,1681843422.00
304,1500,1500,1500,885,0.016,1681843422.08
305,1500,1500,1500,885,0.016,1681843422.16
306,1500,1500,1500,885,0.016,1681843422.24
307,1500,1500,1500,885,0.016,1681843422.32
308,1500,1500,1500,885,0.016,1681843422.40
309,1500,1500,1500,885,0.016,1681843422.48
310,1500,1500,1500,885,0.016,1681843422.56
311,1500,1500,1500,885,0.016,1681843422.64
312,1500,1500,1500,885,0.016,1681843422.72
313,1500,1500,1500,885,0.016,1681843422.80
314,1500,1500,1500,885,0.016,1681843422.88
315,1500,1500,1500,885,0.016,1681843422.96
316,1500,1500,1500,885,0.016,1681843423.04
317,1500,1500,1500,885,0.016,1681843423.12
318,1500,1500,1500,885,0.016,1681843423.20
319,1500,1500,1500,885,0.016,1681843423.28
320,1500,1500,1500,885,0.016,1681843423.36
321,1500,1500,1500,885,0.016,1681843423.44
322,1500,1500,1500,885,0.016,1681843423.52
323,1500,1500,1500,885,0.016,1681843423.60
324,1500,1500,1500,885,0.016,1681843423.68
325,1500,1500,1500,885,0.016,1681843423.76
326,1500,1500,1500,885,0.016,1681843423.84
327,1500,1500,1500,885,0.016,1681843423.92
328,1500,1500,1500,885,0.016,1681843424.00
329,1500,1500,1500,885,0.016,1681843424.08
330,1500,1500,1500,885,0.016,1681843424.16
331,1500,1500,1500,885,0.016,1681843424.24
332,1500,1500,1500,885,0.016,1681843424.32
333,1500,1500,1500,885,0.016,1681843424.40
334,,,,,,
335,1500,1500,1500,885,0.016,1681843424.54
336,1500,1500,1500,885,0.016,1681843424.62
337,1500,1500,1500,885,0.016,1681843424.70
338,1500,1500,1500,885,0.016,1681843424.78
339,1500,1500,1500,885,0.016,1681843424.86
340,1500,1500,1500,885,0.016,1681843424.94
341,1500,1500,1500,885,0.016,1681843425.02
342,1500,1500,1500,885,0.016,1681843425.10
343,1500,1500,1500,885,0.016,1681843425.18
344,1500,1500,1500,885,0.016,1681843425.26
345,1500,1500,1500,885,0.016,1681843425.34
346,1500,1500,1500,885,0.016,1681843425.42
347,1500,1500,1500,885,0.016,1681843425.50
348,1500,1500,1500,885,0.016,1681843425.58
349,1500,1500,1500,885,0.016,1681843425.66
350,1500,1500,1500,885,0.016,1681843425.74
351,1500,1500,1500,885,0.016,1681843425.82
352,1500,1500,1500,885,0.016,1681843425.90
353,,,,,,
354,-109,-442,223,-701,0.016,1681843426.00
355,,,,,,
356,1500,1500,1500,885,0.016,1681843426.16
357,1500,1500,1500,885,0.016,1681843426.24
358,1500,1500,1500,885,0.016,1681843426.32
359,1500,1500,1500,885,0.016,1681843426.40
360,1500,1500,1500,885,0.016,1681843426.48
361,1500,1500,1500,885,0.016,1681843426.56
362,1500,1500,1500,885,0.016,1681843426.64
363,1500,1500,1500,885,0.015,1681843426.72
364,1500,1500,1500,885,0.015,1681843426.80
365,1500,1500,1500,885,0.015,1681843426.88
366,1500,1500,1500,885,0.015,1681843426.96
367,1500,1500,1500,885,0.015,1681843427.04
368,1500,1500,1500,885,0.015,1681843427.12
369,1500,1500,1500,885,0.015,1681843427.20
370,1500,1500,1500,885,0.015,1681843427.28
371,1500,1500,1500,885,0.014,1681843427.36
372,,,,,,
373,44,53,479,0,0.012,1681843427.45
374,,,,,,
375,1500,1500,1500,885,0.015,1681843427.61
376,1500,1500,1500,885,0.015,1681843427.69
377,1500,1500,1500,885,0.015,1681843427.77
378,1500,1500,1500,885,0.015,1681843427.85
379,1500,1500,1500,885,0.015,1681843427.93
380,1500,1500,1500,885,0.015,1681843428.01
381,1500,1500,1500,885,0.015,1681843428.09
382,1500,1500,1500,885,0.015,1681843428.17
383,1500,1500,1500,885,0.015,1681843428.25
384,1500,1500,1500,885,0.015,1681843428.33
385,1500,1500,1500,885,0.015,1681843428.41
386,1500,1500,1500,885,0.015,1681843428.49
387,1500,1500,1500,885,0.015,1681843428.57
388,1500,1500,1500,885,0.015,1681843428.65
389,1500,1500,1500,885,0.015,1681843428.73
390,1500,1500,1500,885,0.015,1681843428.81
391,,,,,,
392,,,,,,
393,,,,,,
394,,,,,,
395,1500,1500,1500,885,0.016,1681843429.01
396,,,,,,
397,287,-153,346,170,0.015,1681843429.16
398,,,,,,
399,1500,1500,1500,885,0.015,1681843429.32
400,1500,1500,1500,885,0.015,1681843429.40
401,1500,1500,1500,885,0.016,1681843429.49
402,1500,1500,1500,885,0.015,1681843429.56
403,1500,1500,1500,885,0.015,1681843429.65
404,1500,1500,1500,885,0.015,1681843429.72
405,1500,1500,1500,885,0.015,1681843429.81
406,1500,1500,1500,885,0.015,1681843429.88
407,1500,1500,1500,885,0.015,1681843429.96
408,1500,1500,1500,885,0.015,1681843430.04
409,1500,1500,1500,885,0.015,1681843430.12
410,,,,,,
411,,,,,,
412,,,,,,
413,68,-43,483,-61,0.015,1681843430.33
414,,,,,,
415,1500,1500,1500,885,0.015,1681843430.49
416,1500,1500,1500,885,0.015,1681843430.57
417,1500,1500,1500,885,0.015,1681843430.65
418,1500,1500,1500,885,0.015,1681843430.73
419,1500,1500,1500,885,0.015,1681843430.81
420,1500,1500,1500,885,0.015,1681843430.89
421,1500,1500,1500,885,0.015,1681843430.97
422,1500,1500,1500,885,0.015,1681843431.05
423,1500,1500,1500,885,0.015,1681843431.13
424,1500,1500,1500,885,0.015,1681843431.21
425,1500,1500,1500,885,0.015,1681843431.29
426,1500,1500,1500,885,0.015,1681843431.37
427,1500,1500,1500,885,0.015,1681843431.45
428,1500,1500,1500,885,0.015,1681843431.53
429,1500,1500,1500,885,0.015,1681843431.61
430,,,,,,
431,1500,1500,1500,885,0.015,1681843431.68
432,,,,,,
433,1500,1500,1500,885,0.015,1681843431.84
434,1500,1500,1500,885,0.015,1681843431.92
435,1500,1500,1500,885,0.015,1681843432.00
436,1500,1500,1500,885,0.015,1681843432.08
437,1500,1500,1500,885,0.015,1681843432.16
438,1500,1500,1500,885,0.015,1681843432.24
439,1500,1500,1500,885,0.015,1681843432.32
440,1500,1500,1500,885,0.015,1681843432.40
441,1500,1500,1500,885,0.015,1681843432.48
442,1500,1500,1500,885,0.015,1681843432.56
443,1500,1500,1500,885,0.015,1681843432.64
444,1500,1500,1500,885,0.015,1681843432.72
445,1500,1500,1500,885,0.015,1681843432.80
446,1500,1500,1500,885,0.015,1681843432.88
447,1500,1500,1500,885,0.015,1681843432.96
448,1500,1500,1500,885,0.016,1681843433.04
449,1500,1500,1500,885,0.015,1681843433.12
450,1500,1500,1500,885,0.015,1681843433.20
451,1500,1500,1500,885,0.016,1681843433.28
452,1500,1500,1500,885,0.015,1681843433.36
453,1500,1500,1500,885,0.015,1681843433.44
454,1500,1500,1500,885,0.015,1681843433.52
455,1500,1500,1500,885,0.015,1681843433.60
456,1500,1500,1500,885,0.015,1681843433.68
457,1500,1500,1500,885,0.015,1681843433.76
458,1500,1500,1500,885,0.015,1681843433.84
459,1500,1500,1500,885,0.015,1681843433.92
460,1500,1500,1500,885,0.015,1681843434.00
461,1500,1500,1500,885,0.015,1681843434.08
462,1500,1500,1500,885,0.015,1681843434.16
463,1500,1500,1500,885,0.015,1681843434.24
464,1500,1500,1500,885,0.015,1681843434.32
465,1500,1500,1500,885,0.015,1681843434.40
466,1500,1500,1500,885,0.015,1681843434.48
467,1500,1500,1500,885,0.015,1681843434.56
468,,,,,,
469,1500,1500,1500,885,0.016,1681843434.70
470,1500,1500,1500,885,0.015,1681843434.78
471,1500,1500,1500,885,0.016,1681843434.86
472,1500,1500,1500,885,0.016,1681843434.94
473,1500,1500,1500,885,0.016,1681843435.02
474,1500,1500,1500,885,0.016,1681843435.10
475,1500,1500,1500,885,0.016,1681843435.18
476,1500,1500,1500,885,0.016,1681843435.26
477,1500,1500,1500,885,0.016,1681843435.34
478,1500,1500,1500,885,0.016,1681843435.42
479,1500,1500,1500,885,0.016,1681843435.50
480,1500,1500,1500,885,0.016,1681843435.58
481,1500,1500,1500,885,0.016,1681843435.66
482,1500,1500,1500,885,0.016,1681843435.74
483,1500,1500,1500,885,0.016,1681843435.82
484,1500,1500,1500,885,0.016,1681843435.90
485,1500,1500,1500,885,0.016,1681843435.98
486,1500,1500,1500,885,0.016,1681843436.06
487,,,,,,
488,,,,,,
489,1500,1500,1500,885,0.016,1681843436.24
490,1500,1500,1500,885,0.016,1681843436.32
491,1500,1500,1500,885,0.016,1681843436.40
492,1500,1500,1500,885,0.016,1681843436.48
493,1500,1500,1500,885,0.016,1681843436.56
494,1500,1500,1500,885,0.016,1681843436.64
495,1500,1500,1500,885,0.016,1681843436.72
496,1500,1500,1500,885,0.016,1681843436.80
497,1500,1500,1500,885,0.016,1681843436.88
498,1500,1500,1500,885,0.016,1681843436.96
499,1500,1500,1500,885,0.016,1681843437.04
500,1500,1500,1500,885,0.016,1681843437.12
501,1500,1500,1500,885,0.016,1681843437.20
502,1500,1500,1500,885,0.016,1681843437.28
503,1500,1500,1500,885,0.016,1681843437.36
504,1500,1500,1500,885,0.016,1681843437.44
505,1500,1500,1500,885,0.016,1681843437.52
506,,,,,,
507,269,-166,192,-425,0.012,1681843437.61
508,,,,,,
509,1500,1500,1500,885,0.016,1681843437.77
510,1500,1500,1500,885,0.016,1681843437.85
511,1500,1500,1500,885,0.016,1681843437.93
512,1500,1500,1500,885,0.016,1681843438.01
513,1500,1500,1500,885,0.016,1681843438.09
514,1500,1500,1500,885,0.016,1681843438.17
515,1500,1500,1500,885,0.016,1681843438.25
516,1500,1500,1500,885,0.016,1681843438.33
517,1500,1500,1500,885,0.016,1681843438.41
518,1500,1500,1500,885,0.016,1681843438.49
519,1500,1500,1500,885,0.016,1681843438.57
520,1500,1500,1500,885,0.016,1681843438.65
521,1500,1500,1500,885,0.016,1681843438.73
522,1500,1500,1500,885,0.016,1681843438.81
523,1500,1500,1500,885,0.016,1681843438.89
524,1500,1500,1500,885,0.016,1681843438.97
525,,,,,,
526,,,,,,
527,,,,,,
528,197,-23,446,550,0.001,1681843439.08
529,,,,,,
530,223,-9,451,175,0.016,1681843439.23
531,,,,,,
532,,,,,,
533,1500,1500,1500,885,0.016,1681843439.47
534,1500,1500,1500,885,0.016,1681843439.55
535,1500,1500,1500,885,0.016,1681843439.63
536,1500,1500,1500,885,0.016,1681843439.71
537,1500,1500,1500,885,0.016,1681843439.79
538,1500,1500,1500,885,0.016,1681843439.87
539,1500,1500,1500,885,0.016,1681843439.95
540,1500,1500,1500,885,0.016,1681843440.03
541,1500,1500,1500,885,0.016,1681843440.11
542,1500,1500,1500,885,0.016,1681843440.19
543,1500,1500,1500,885,0.016,1681843440.27
544,,,,,,
545,,,,,,
546,,,,,,
547,1500,1500,1500,885,0.016,1681843440.46
548,,,,,,
549,1500,1500,1500,885,0.016,1681843440.62
550,1500,1500,1500,885,0.016,1681843440.70
551,1500,1500,1500,885,0.016,1681843440.78
552,1500,1500,1500,885,0.016,1681843440.86
553,1500,1500,1500,885,0.016,1681843440.94
554,1500,1500,1500,885,0.016,1681843441.02
555,1500,1500,1500,885,0.016,1681843441.10
556,1500,1500,1500,885,0.016,1681843441.18
557,1500,1500,1500,885,0.016,1681843441.26
558,1500,1500,1500,885,0.016,1681843441.34
559,1500,1500,1500,885,0.016,1681843441.42
560,1500,1500,1500,885,0.016,1681843441.50
561,1500,1500,1500,885,0.016,1681843441.58
562,1500,1500,1500,885,0.016,1681843441.66
563,1500,1500,1500,885,0.016,1681843441.74
564,1500,1500,1500,885,0.016,1681843441.82
565,1500,1500,1500,885,0.016,1681843441.90
566,1500,1500,1500,885,0.016,1681843441.98
567,1500,1500,1500,885,0.016,1681843442.06
568,1500,1500,1500,885,0.016,1681843442.14
569,1500,1500,1500,885,0.016,1681843442.22
570,1500,1500,1500,885,0.016,1681843442.30
571,1500,1500,1500,885,0.016,1681843442.38
572,1500,1500,1500,885,0.016,1681843442.46
573,1500,1500,1500,885,0.016,1681843442.54
574,1500,1500,1500,885,0.016,1681843442.62
575,1500,1500,1500,885,0.016,1681843442.70
576,1500,1500,1500,885,0.016,1681843442.78
577,1500,1500,1500,885,0.016,1681843442.86
578,1500,1500,1500,885,0.016,1681843442.94
579,1500,1500,1500,885,0.016,1681843443.02
580,1500,1500,1500,885,0.016,1681843443.10
581,1500,1500,1500,885,0.016,1681843443.18
582,1500,1500,1500,885,0.016,1681843443.26
583,,,,,,
584,1500,1500,1500,885,0.016,1681843443.41
585,1500,1500,1500,885,0.016,1681843443.49
586,1500,1500,1500,885,0.016,1681843443.57
587,1500,1500,1500,885,0.016,1681843443.65
588,1500,1500,1500,885,0.016,1681843443.73
589,1500,1500,1500,885,0.016,1681843443.81
590,1500,1500,1500,885,0.016,1681843443.89
591,1500,1500,1500,885,0.016,1681843443.97
592,1500,1500,1500,885,0.016,1681843444.05
593,1500,1500,1500,885,0.016,1681843444.13
594,1500,1500,1500,885,0.016,1681843444.21
595,1500,1500,1500,885,0.016,1681843444.29
596,1500,1500,1500,885,0.016,1681843444.37
597,1500,1500,1500,885,0.016,1681843444.45
598,1500,1500,1500,885,0.016,1681843444.53
599,1500,1500,1500,885,0.016,1681843444.61
600,1500,1500,1500,885,0.016,1681843444.69
601,1500,1500,1500,885,0.016,1681843444.77
602,,,,,,
603,1500,1500,1500,885,0.016,1681843444.91
604,1500,1500,1500,885,0.016,1681843444.99
605,1500,1500,1500,885,0.016,1681843445.07
606,1500,1500,1500,885,0.016,1681843445.15
607,1500,1500,1500,885,0.016,1681843445.23
608,1500,1500,1500,885,0.016,1681843445.31
609,1500,1500,1500,885,0.016,1681843445.39
610,1500,1500,1500,885,0.016,1681843445.47
611,1500,1500,1500,885,0.016,1681843445.55
612,1500,1500,1500,885,0.016,1681843445.63
613,1500,1500,1500,885,0.016,1681843445.71
614,1500,1500,1500,885,0.016,1681843445.79
615,1500,1500,1500,885,0.016,1681843445.87
616,1500,1500,1500,885,0.016,1681843445.95
617,1500,1500,1500,885,0.016,1681843446.03
618,1500,1500,1500,885,0.015,1681843446.11
619,1500,1500,1500,885,0.015,1681843446.19
620,1500,1500,1500,885,0.015,1681843446.27
621,1500,1500,1500,885,0.015,1681843446.35
622,1500,1500,1500,885,0.015,1681843446.43
623,1500,1500,1500,885,0.015,1681843446.51
624,1500,1500,1500,885,0.016,1681843446.59
625,1500,1500,1500,885,0.016,1681843446.67
626,1500,1500,1500,885,0.016,1681843446.75
627,1500,1500,1500,885,0.016,1681843446.83
628,1500,1500,1500,885,0.016,1681843446.91
629,1500,1500,1500,885,0.015,1681843446.99
630,1500,1500,1500,885,0.016,1681843447.07
631,1500,1500,1500,885,0.016,1681843447.15
632,1500,1500,1500,885,0.016,1681843447.23
633,1500,1500,1500,885,0.015,1681843447.31
634,1500,1500,1500,885,0.016,1681843447.39
635,1500,1500,1500,885,0.016,1681843447.47
636,1500,1500,1500,885,0.016,1681843447.55
637,1500,1500,1500,885,0.015,1681843447.63
638,1500,1500,1500,885,0.016,1681843447.71
639,1500,1500,1500,885,0.016,1681843447.79
640,,,,,,
641,,,,,,
642,1500,1500,1500,885,0.016,1681843448.00
643,1500,1500,1500,885,0.016,1681843448.08
644,1500,1500,1500,885,0.016,1681843448.16
645,1500,1500,1500,885,0.016,1681843448.24
646,1500,1500,1500,885,0.016,1681843448.32
647,1500,1500,1500,885,0.016,1681843448.40
648,1500,1500,1500,885,0.016,1681843448.48
649,1500,1500,1500,885,0.016,1681843448.56
650,1500,1500,1500,885,0.016,1681843448.64
651,1500,1500,1500,885,0.016,1681843448.72
652,1500,1500,1500,885,0.016,1681843448.80
653,1500,1500,1500,885,0.016,1681843448.88
654,1500,1500,1500,885,0.016,1681843448.96
655,1500,1500,1500,885,0.016,1681843449.04
656,1500,1500,1500,885,0.016,1681843449.12
657,1500,1500,1500,885,0.016,1681843449.20
658,1500,1500,1500,885,0.016,1681843449.28
659,,,,,,
660,,,,,,
661,,,,,,
662,,,,,,
663,,,,,,
664,1500,1500,1500,885,0.016,1681843449.52
665,,,,,,
666,-81,42,505,-643,0.016,1681843449.68
667,,,,,,
668,1500,1500,1500,885,0.016,1681843449.84
669,1500,1500,1500,885,0.015,1681843449.92
670,1500,1500,1500,885,0.016,1681843450.00
671,1500,1500,1500,885,0.016,1681843450.08
672,1500,1500,1500,885,0.016,1681843450.16
673,1500,1500,1500,885,0.016,1681843450.24
674,1500,1500,1500,885,0.016,1681843450.32
675,1500,1500,1500,885,0.015,1681843450.40
676,1500,1500,1500,885,0.016,1681843450.48
677,1500,1500,1500,885,0.016,1681843450.56
678,,,,,,
679,,,,,,
680,35,-179,443,261,0.0,1681843450.66
681,,,,,,
682,-56,-26,438,3229,0.016,1681843450.81
683,,,,,,
684,1500,1500,1500,885,0.016,1681843450.97
685,1500,1500,1500,885,0.015,1681843451.05
686,1500,1500,1500,885,0.015,1681843451.13
687,1500,1500,1500,885,0.015,1681843451.21
688,1500,1500,1500,885,0.015,1681843451.29
689,1500,1500,1500,885,0.015,1681843451.37
690,1500,1500,1500,885,0.015,1681843451.45
691,1500,1500,1500,885,0.015,1681843451.53
692,1500,1500,1500,885,0.015,1681843451.61
693,1500,1500,1500,885,0.015,1681843451.69
694,1500,1500,1500,885,0.016,1681843451.77
695,1500,1500,1500,885,0.016,1681843451.85
696,1500,1500,1500,885,0.016,1681843451.93
697,,,,,,
698,1500,1500,1500,885,0.016,1681843452.08
699,1500,1500,1500,885,0.016,1681843452.16
700,1500,1500,1500,885,0.016,1681843452.24
701,1500,1500,1500,885,0.016,1681843452.32
702,1500,1500,1500,885,0.016,1681843452.40
703,1500,1500,1500,885,0.016,1681843452.48
704,1500,1500,1500,885,0.016,1681843452.56
705,1500,1500,1500,885,0.016,1681843452.64
706,1500,1500,1500,885,0.016,1681843452.72
707,1500,1500,1500,885,0.016,1681843452.80
708,1500,1500,1500,885,0.016,1681843452.88
709,1500,1500,1500,885,0.016,1681843452.96
710,1500,1500,1500,885,0.016,1681843453.04
711,1500,1500,1500,885,0.016,1681843453.12
712,1500,1500,1500,885,0.016,1681843453.20
713,1500,1500,1500,885,0.016,1681843453.28
714,1500,1500,1500,885,0.016,1681843453.36
715,1500,1500,1500,885,0.016,1681843453.44
716,1500,1500,1500,885,0.016,1681843453.52
717,,,,,,
718,-218,69,418,203,0.016,1681843453.60
719,,,,,,
720,1500,1500,1500,885,0.016,1681843453.76
721,1500,1500,1500,885,0.016,1681843453.84
722,1500,1500,1500,885,0.016,1681843453.92
723,1500,1500,1500,885,0.016,1681843454.00
724,1500,1500,1500,885,0.016,1681843454.08
725,1500,1500,1500,885,0.016,1681843454.16
726,1500,1500,1500,885,0.016,1681843454.24
727,1500,1500,1500,885,0.016,1681843454.32
728,1500,1500,1500,885,0.016,1681843454.40
729,1500,1500,1500,885,0.016,1681843454.48
730,1500,1500,1500,885,0.016,1681843454.56
731,1500,1500,1500,885,0.015,1681843454.64
732,1500,1500,1500,885,0.015,1681843454.72
733,1500,1500,1500,885,0.015,1681843454.80
734,1500,1500,1500,885,0.015,1681843454.88
735,1500,1500,1500,885,0.015,1681843454.96
736,,,,,,
737,1500,1500,1500,885,0.016,1681843455.09
738,1500,1500,1500,885,0.016,1681843455.17
739,1500,1500,1500,885,0.016,1681843455.25
740,1500,1500,1500,885,0.016,1681843455.33
741,1500,1500,1500,885,0.016,1681843455.41
742,1500,1500,1500,885,0.016,1681843455.49
743,1500,1500,1500,885,0.016,1681843455.57
744,1500,1500,1500,885,0.016,1681843455.65
745,1500,1500,1500,885,0.016,1681843455.73
746,1500,1500,1500,885,0.016,1681843455.81
747,1500,1500,1500,885,0.016,1681843455.89
748,1500,1500,1500,885,0.016,1681843455.97
749,1500,1500,1500,885,0.016,1681843456.05
750,1500,1500,1500,885,0.016,1681843456.13
751,1500,1500,1500,885,0.016,1681843456.21
752,1500,1500,1500,885,0.016,1681843456.29
753,1500,1500,1500,885,0.016,1681843456.37
754,1500,1500,1500,885,0.016,1681843456.45
755,,,,,,
756,1500,1500,1500,885,0.016,1681843456.59
757,1500,1500,1500,885,0.016,1681843456.67
758,1500,1500,1500,885,0.016,1681843456.75
759,1500,1500,1500,885,0.016,1681843456.83
760,1500,1500,1500,885,0.016,1681843456.91
761,1500,1500,1500,885,0.016,1681843456.99
762,1500,1500,1500,885,0.016,1681843457.07
763,1500,1500,1500,885,0.016,1681843457.15
764,1500,1500,1500,885,0.016,1681843457.23
765,1500,1500,1500,885,0.016,1681843457.31
766,1500,1500,1500,885,0.016,1681843457.39
767,1500,1500,1500,885,0.016,1681843457.47
768,1500,1500,1500,885,0.016,1681843457.55
769,1500,1500,1500,885,0.016,1681843457.63
770,1500,1500,1500,885,0.016,1681843457.71
771,1500,1500,1500,885,0.016,1681843457.79
772,1500,1500,1500,885,0.016,1681843457.87
773,1500,1500,1500,885,0.016,1681843457.95
774,,,,,,
775,-53,-426,304,-79,0.012,1681843458.05
776,,,,,,
777,1500,1500,1500,885,0.016,1681843458.21
778,1500,1500,1500,885,0.015,1681843458.29
779,1500,1500,1500,885,0.016,1681843458.37
780,1500,1500,1500,885,0.016,1681843458.45
781,1500,1500,1500,885,0.016,1681843458.53
782,1500,1500,1500,885,0.016,1681843458.61
783,1500,1500,1500,885,0.016,1681843458.69
784,1500,1500,1500,885,0.016,1681843458.77
785,1500,1500,1500,885,0.016,1681843458.85
786,1500,1500,1500,885,0.016,1681843458.93
787,1500,1500,1500,885,0.016,1681843459.01
788,1500,1500,1500,885,0.016,1681843459.09
789,1500,1500,1500,885,0.016,1681843459.17
790,1500,1500,1500,885,0.016,1681843459.25
791,1500,1500,1500,885,0.016,1681843459.33
792,1500,1500,1500,885,0.016,1681843459.41
793,,,,,,
794,,,,,,
795,,,,,,
796,,,,,,
797,1500,1500,1500,885,0.016,1681843459.55
798,,,,,,
799,76,-60,463,168,0.016,1681843459.71
800,,,,,,
801,,,,,,
802,1500,1500,1500,885,0.016,1681843459.95
803,1500,1500,1500,885,0.016,1681843460.03
804,1500,1500,1500,885,0.016,1681843460.11
805,1500,1500,1500,885,0.016,1681843460.19
806,1500,1500,1500,885,0.016,1681843460.27
807,1500,1500,1500,885,0.016,1681843460.35
808,1500,1500,1500,885,0.016,1681843460.43
809,1500,1500,1500,885,0.016,1681843460.51
810,1500,1500,1500,885,0.016,1681843460.59
811,1500,1500,1500,885,0.016,1681843460.67
812,,,,,,
813,,,,,,
814,,,,,,
815,,,,,,
816,1500,1500,1500,885,0.016,1681843460.91
817,,,,,,
818,1500,1500,1500,885,0.016,1681843461.07
819,1500,1500,1500,885,0.016,1681843461.15
820,1500,1500,1500,885,0.016,1681843461.23
821,1500,1500,1500,885,0.015,1681843461.31
822,1500,1500,1500,885,0.015,1681843461.39
823,1500,1500,1500,885,0.015,1681843461.47
824,1500,1500,1500,885,0.015,1681843461.55
825,1500,1500,1500,885,0.015,1681843461.63
826,1500,1500,1500,885,0.015,1681843461.71
827,1500,1500,1500,885,0.015,1681843461.79
828,1500,1500,1500,885,0.015,1681843461.87
829,1500,1500,1500,885,0.015,1681843461.95
830,1500,1500,1500,885,0.015,1681843462.03
831,,,,,,
832,,,,,,
833,1500,1500,1500,885,0.015,1681843462.24
834,1500,1500,1500,885,0.015,1681843462.32
835,1500,1500,1500,885,0.015,1681843462.40
836,1500,1500,1500,885,0.015,1681843462.48
837,1500,1500,1500,885,0.016,1681843462.56
838,1500,1500,1500,885,0.016,1681843462.64
839,1500,1500,1500,885,0.016,1681843462.72
840,1500,1500,1500,885,0.016,1681843462.80
841,1500,1500,1500,885,0.016,1681843462.88
842,1500,1500,1500,885,0.016,1681843462.96
843,1500,1500,1500,885,0.016,1681843463.04
844,1500,1500,1500,885,0.016,1681843463.12
845,1500,1500,1500,885,0.016,1681843463.20
846,1500,1500,1500,885,0.016,1681843463.28
847,1500,1500,1500,885,0.016,1681843463.36
848,1500,1500,1500,885,0.015,1681843463.44
849,1500,1500,1500,885,0.016,1681843463.52
850,1500,1500,1500,885,0.016,1681843463.60
851,,,,,,
852,,,,,,
853,1500,1500,1500,885,0.016,1681843463.79
854,1500,1500,1500,885,0.016,1681843463.87
855,1500,1500,1500,885,0.016,1681843463.95
856,1500,1500,1500,885,0.016,1681843464.03
857,1500,1500,1500,885,0.016,1681843464.11
858,1500,1500,1500,885,0.016,1681843464.19
859,1500,1500,1500,885,0.016,1681843464.27
860,1500,1500,1500,885,0.016,1681843464.35
861,1500,1500,1500,885,0.016,1681843464.43
862,1500,1500,1500,885,0.016,1681843464.51
863,1500,1500,1500,885,0.016,1681843464.59
864,1500,1500,1500,885,0.016,1681843464.67
865,1500,1500,1500,885,0.016,1681843464.75
866,1500,1500,1500,885,0.016,1681843464.83
867,1500,1500,1500,885,0.016,1681843464.91
868,1500,1500,1500,885,0.016,1681843464.99
869,1500,1500,1500,885,0.016,1681843465.07
870,,,,,,
871,1500,1500,1500,885,0.016,1681843465.20
872,1500,1500,1500,885,0.016,1681843465.28
873,1500,1500,1500,885,0.016,1681843465.36
874,1500,1500,1500,885,0.016,1681843465.44
875,1500,1500,1500,885,0.016,1681843465.52
876,1500,1500,1500,885,0.016,1681843465.60
877,1500,1500,1500,885,0.016,1681843465.68
878,1500,1500,1500,885,0.016,1681843465.76
879,1500,1500,1500,885,0.016,1681843465.84
880,1500,1500,1500,885,0.016,1681843465.92
881,1500,1500,1500,885,0.016,1681843466.00
882,1500,1500,1500,885,0.016,1681843466.08
883,1500,1500,1500,885,0.016,1681843466.16
884,1500,1500,1500,885,0.016,1681843466.24
885,1500,1500,1500,885,0.016,1681843466.32
886,1500,1500,1500,885,0.016,1681843466.40
887,1500,1500,1500,885,0.016,1681843466.48
888,1500,1500,1500,885,0.016,1681843466.56
889,,,,,,
890,1500,1500,1500,885,0.016,1681843466.70
891,1500,1500,1500,885,0.016,1681843466.78
892,1500,1500,1500,885,0.016,1681843466.86
893,1500,1500,1500,885,0.016,1681843466.94
894,1500,1500,1500,885,0.016,1681843467.02
895,1500,1500,1500,885,0.016,1681843467.10
896,1500,1500,1500,885,0.016,1681843467.18
897,1500,1500,1500,885,0.016,1681843467.26
898,1500,1500,1500,885,0.016,1681843467.34
899,1500,1500,1500,885,0.016,1681843467.42
900,1500,1500,1500,885,0.016,1681843467.50
901,1500,1500,1500,885,0.016,1681843467.58
902,1500,1500,1500,885,0.016,1681843467.66
903,1500,1500,1500,885,0.016,1681843467.74
904,1500,1500,1500,885,0.016,1681843467.82
905,1500,1500,1500,885,0.016,1681843467.90
906,1500,1500,1500,885,0.016,1681843467.98
907,1500,1500,1500,885,0.016,1681843468.06
908,,,,,,
909,1500,1500,1500,885,0.016,1681843468.21
910,1500,1500,1500,885,0.016,1681843468.29
911,1500,1500,1500,885,0.016,1681843468.37
912,1500,1500,1500,885,0.016,1681843468.45
913,1500,1500,1500,885,0.016,1681843468.53
914,1500,1500,1500,885,0.016,1681843468.61
915,1500,1500,1500,885,0.016,1681843468.69
916,1500,1500,1500,885,0.016,1681843468.77
917,1500,1500,1500,885,0.016,1681843468.85
918,1500,1500,1500,885,0.016,1681843468.93
919,1500,1500,1500,885,0.015,1681843469.00
920,1500,1500,1500,885,0.015,1681843469.08
921,1500,1500,1500,885,0.015,1681843469.16
922,1500,1500,1500,885,0.015,1681843469.24
923,1500,1500,1500,885,0.015,1681843469.32
924,1500,1500,1500,885,0.015,1681843469.40
925,1500,1500,1500,885,0.015,1681843469.48
926,1500,1500,1500,885,0.015,1681843469.56
927,,,,,,
928,,,,,,
929,,,,,,
930,,,,,,
931,1500,1500,1500,885,0.015,1681843469.71
932,,,,,,
933,17,116,485,-106,0.015,1681843469.87
934,,,,,,
935,,,,,,
936,1500,1500,1500,885,0.015,1681843470.11
937,1500,1500,1500,885,0.015,1681843470.19
938,1500,1500,1500,885,0.016,1681843470.27
939,1500,1500,1500,885,0.015,1681843470.35
940,1500,1500,1500,885,0.015,1681843470.43
941,1500,1500,1500,885,0.015,1681843470.51
942,1500,1500,1500,885,0.015,1681843470.59
943,1500,1500,1500,885,0.015,1681843470.67
944,1500,1500,1500,885,0.015,1681843470.75
945,1500,1500,1500,885,0.015,1681843470.83
946,,,,,,
947,,,,,,
948,,,,,,
949,1500,1500,1500,885,0.015,1681843470.97
950,,,,,,
951,22,62,477,56,0.016,1681843471.13
952,,,,,,
953,1500,1500,1500,885,0.016,1681843471.29
954,1500,1500,1500,885,0.016,1681843471.37
955,1500,1500,1500,885,0.016,1681843471.45
956,1500,1500,1500,885,0.016,1681843471.53
957,1500,1500,1500,885,0.016,1681843471.61
958,1500,1500,1500,885,0.016,1681843471.69
959,1500,1500,1500,885,0.016,1681843471.77
960,1500,1500,1500,885,0.016,1681843471.85
961,1500,1500,1500,885,0.016,1681843471.93
962,1500,1500,1500,885,0.016,1681843472.01
963,1500,1500,1500,885,0.016,1681843472.09
964,1500,1500,1500,885,0.015,1681843472.17
965,,,,,,
966,,,,,,
967,,,,,,
968,1500,1500,1500,885,0.015,1681843472.44
969,1500,1500,1500,885,0.015,1681843472.52
970,1500,1500,1500,885,0.015,1681843472.60
971,1500,1500,1500,885,0.015,1681843472.68
972,1500,1500,1500,885,0.015,1681843472.76
973,1500,1500,1500,885,0.015,1681843472.84
974,1500,1500,1500,885,0.015,1681843472.92
975,1500,1500,1500,885,0.015,1681843473.00
976,1500,1500,1500,885,0.015,1681843473.08
977,1500,1500,1500,885,0.015,1681843473.16
978,1500,1500,1500,885,0.015,1681843473.24
979,1500,1500,1500,885,0.015,1681843473.32
980,1500,1500,1500,885,0.015,1681843473.40
981,1500,1500,1500,885,0.015,1681843473.48
982,1500,1500,1500,885,0.015,1681843473.56
983,1500,1500,1500,885,0.015,1681843473.64
984,1500,1500,1500,885,0.015,1681843473.72
985,,,,,,
986,,,,,,
987,1500,1500,1500,885,0.015,1681843473.90
988,1500,1500,1500,885,0.015,1681843473.98
989,1500,1500,1500,885,0.015,1681843474.06
990,1500,1500,1500,885,0.015,1681843474.14
991,1500,1500,1500,885,0.016,1681843474.22
992,1500,1500,1500,885,0.016,1681843474.30
993,1500,1500,1500,885,0.015,1681843474.38
994,1500,1500,1500,885,0.016,1681843474.46
995,1500,1500,1500,885,0.016,1681843474.54
996,1500,1500,1500,885,0.016,1681843474.62
997,1500,1500,1500,885,0.016,1681843474.70
998,1500,1500,1500,885,0.016,1681843474.78
999,1500,1500,1500,885,0.016,1681843474.86
1000,1500,1500,1500,885,0.016,1681843474.94
1001,1500,1500,1500,885,0.016,1681843475.02
1002,1500,1500,1500,885,0.016,1681843475.10
1003,1500,1500,1500,885,0.016,1681843475.18
1004,1500,1500,1500,885,0.016,1681843475.26
1005,1500,1500,1500,885,0.016,1681843475.34
1006,1500,1500,1500,885,0.016,1681843475.42
1007,1500,1500,1500,885,0.016,1681843475.50
1008,1500,1500,1500,885,0.016,1681843475.58
1009,1500,1500,1500,885,0.016,1681843475.66
1010,1500,1500,1500,885,0.016,1681843475.74
1011,1500,1500,1500,885,0.016,1681843475.82
1012,1500,1500,1500,885,0.016,1681843475.90
1013,1500,1500,1500,885,0.016,1681843475.98
1014,1500,1500,1500,885,0.016,1681843476.06
1015,1500,1500,1500,885,0.016,1681843476.14
1016,1500,1500,1500,885,0.016,1681843476.22
1017,1500,1500,1500,885,0.016,1681843476.30
1018,1500,1500,1500,885,0.016,1681843476.38
1019,1500,1500,1500,885,0.016,1681843476.46
1020,1500,1500,1500,885,0.016,1681843476.54
1021,1500,1500,1500,885,0.016,1681843476.62
1022,1500,1500,1500,885,0.016,1681843476.70
1023,,,,,,
1024,1500,1500,1500,885,0.016,1681843476.85
1025,1500,1500,1500,885,0.016,1681843476.93
1026,1500,1500,1500,885,0.016,1681843477.01
1027,1500,1500,1500,885,0.016,1681843477.09
1028,1500,1500,1500,885,0.015,1681843477.16
1029,1500,1500,1500,885,0.015,1681843477.24
1030,1500,1500,1500,885,0.015,1681843477.32
1031,1500,1500,1500,885,0.015,1681843477.40
1032,1500,1500,1500,885,0.015,1681843477.48
1033,1500,1500,1500,885,0.015,1681843477.56
1034,1500,1500,1500,885,0.015,1681843477.64
1035,1500,1500,1500,885,0.015,1681843477.72
1036,1500,1500,1500,885,0.015,1681843477.80
1037,1500,1500,1500,885,0.015,1681843477.88
1038,1500,1500,1500,885,0.015,1681843477.96
1039,1500,1500,1500,885,0.015,1681843478.04
1040,1500,1500,1500,885,0.015,1681843478.12
1041,1500,1500,1500,885,0.015,1681843478.20
1042,,,,,,
1043,1500,1500,1500,885,0.015,1681843478.35
1044,1500,1500,1500,885,0.015,1681843478.43
1045,1500,1500,1500,885,0.015,1681843478.51
1046,1500,1500,1500,885,0.015,1681843478.59
1047,1500,1500,1500,885,0.015,1681843478.67
1048,1500,1500,1500,885,0.015,1681843478.75
1049,1500,1500,1500,885,0.015,1681843478.83
1050,1500,1500,1500,885,0.016,1681843478.91
1051,1500,1500,1500,885,0.016,1681843478.99
1052,1500,1500,1500,885,0.016,1681843479.07
1053,1500,1500,1500,885,0.016,1681843479.15
1054,1500,1500,1500,885,0.016,1681843479.23
1055,1500,1500,1500,885,0.016,1681843479.31
1056,1500,1500,1500,885,0.016,1681843479.39
1057,1500,1500,1500,885,0.016,1681843479.47
1058,1500,1500,1500,885,0.016,1681843479.55
1059,1500,1500,1500,885,0.016,1681843479.63
1060,1500,1500,1500,885,0.016,1681843479.71
1061,1500,1500,1500,885,0.016,1681843479.79
1062,1500,1500,1500,885,0.015,1681843479.87
1063,1500,1500,1500,885,0.015,1681843479.95
1064,1500,1500,1500,885,0.015,1681843480.03
1065,1500,1500,1500,885,0.015,1681843480.11
1066,1500,1500,1500,885,0.015,1681843480.19
1067,1500,1500,1500,885,0.015,1681843480.27
1068,1500,1500,1500,885,0.015,1681843480.35
1069,1500,1500,1500,885,0.015,1681843480.43
1070,1500,1500,1500,885,0.015,1681843480.51
1071,1500,1500,1500,885,0.015,1681843480.59
1072,1500,1500,1500,885,0.015,1681843480.67
1073,1500,1500,1500,885,0.015,1681843480.75
1074,1500,1500,1500,885,0.015,1681843480.83
1075,1500,1500,1500,885,0.015,1681843480.91
1076,1500,1500,1500,885,0.015,1681843480.99
1077,1500,1500,1500,885,0.015,1681843481.07
1078,1500,1500,1500,885,0.015,1681843481.15
1079,1500,1500,1500,885,0.015,1681843481.23
1080,,,,,,
1081,,,,,,
1082,,,,,,
1083,,,,,,
1084,,,,,,
1085,1500,1500,1500,885,0.015,1681843481.52
1086,,,,,,
1087,1500,1500,1500,885,0.015,1681843481.68
1088,1500,1500,1500,885,0.015,1681843481.76
1089,1500,1500,1500,885,0.015,1681843481.84
1090,1500,1500,1500,885,0.015,1681843481.92
1091,1500,1500,1500,885,0.015,1681843482.00
1092,1500,1500,1500,885,0.015,1681843482.08
1093,1500,1500,1500,885,0.015,1681843482.16
1094,1500,1500,1500,885,0.015,1681843482.24
1095,1500,1500,1500,885,0.015,1681843482.32
1096,1500,1500,1500,885,0.015,1681843482.40
1097,1500,1500,1500,885,0.015,1681843482.48
1098,1500,1500,1500,885,0.015,1681843482.56
1099,,,,,,
1100,109,-102,468,8,0.0,1681843482.66
1101,,,,,,
1102,1500,1500,1500,885,0.015,1681843482.81
1103,1500,1500,1500,885,0.015,1681843482.89
1104,1500,1500,1500,885,0.015,1681843482.97
1105,1500,1500,1500,885,0.015,1681843483.05
1106,1500,1500,1500,885,0.015,1681843483.13
1107,1500,1500,1500,885,0.015,1681843483.21
1108,1500,1500,1500,885,0.015,1681843483.29
1109,1500,1500,1500,885,0.015,1681843483.37
1110,1500,1500,1500,885,0.015,1681843483.45
1111,1500,1500,1500,885,0.015,1681843483.53
1112,1500,1500,1500,885,0.015,1681843483.61
1113,1500,1500,1500,885,0.015,1681843483.69
1114,1500,1500,1500,885,0.015,1681843483.77
1115,1500,1500,1500,885,0.015,1681843483.85
1116,1500,1500,1500,885,0.015,1681843483.93
1117,1500,1500,1500,885,0.015,1681843484.01
1118,1500,1500,1500,885,0.015,1681843484.09
1119,,,,,,
1120,1500,1500,1500,885,0.015,1681843484.16
1121,,,,,,
1122,1500,1500,1500,885,0.015,1681843484.32
1123,1500,1500,1500,885,0.015,1681843484.40
1124,1500,1500,1500,885,0.015,1681843484.48
1125,1500,1500,1500,885,0.015,1681843484.56
1126,1500,1500,1500,885,0.015,1681843484.64
1127,1500,1500,1500,885,0.015,1681843484.72
1128,1500,1500,1500,885,0.015,1681843484.80
1129,1500,1500,1500,885,0.015,1681843484.88
1130,1500,1500,1500,885,0.015,1681843484.96
1131,1500,1500,1500,885,0.015,1681843485.04
1132,1500,1500,1500,885,0.015,1681843485.12
1133,1500,1500,1500,885,0.016,1681843485.20
1134,1500,1500,1500,885,0.016,1681843485.28
1135,1500,1500,1500,885,0.016,1681843485.36
1136,1500,1500,1500,885,0.016,1681843485.44
1137,1500,1500,1500,885,0.016,1681843485.52
1138,,,,,,
1139,1500,1500,1500,885,0.016,1681843485.66
1140,1500,1500,1500,885,0.016,1681843485.74
1141,1500,1500,1500,885,0.016,1681843485.82
1142,1500,1500,1500,885,0.016,1681843485.90
1143,1500,1500,1500,885,0.016,1681843485.98
1144,1500,1500,1500,885,0.016,1681843486.06
1145,1500,1500,1500,885,0.015,1681843486.14
1146,1500,1500,1500,885,0.015,1681843486.22
1147,1500,1500,1500,885,0.015,1681843486.30
1148,1500,1500,1500,885,0.015,1681843486.38
1149,1500,1500,1500,885,0.015,1681843486.46
1150,1500,1500,1500,885,0.015,1681843486.54
1151,1500,1500,1500,885,0.015,1681843486.62
1152,1500,1500,1500,885,0.015,1681843486.70
1153,1500,1500,1500,885,0.015,1681843486.78
1154,1500,1500,1500,885,0.015,1681843486.86
1155,1500,1500,1500,885,0.015,1681843486.94
1156,1500,1500,1500,885,0.015,1681843487.02
1157,,,,,,
1158,1500,1500,1500,885,0.015,1681843487.16
1159,1500,1500,1500,885,0.015,1681843487.24
1160,1500,1500,1500,885,0.015,1681843487.32
1161,1500,1500,1500,885,0.015,1681843487.40
1162,1500,1500,1500,885,0.015,1681843487.48
1163,1500,1500,1500,885,0.015,1681843487.56
1164,1500,1500,1500,885,0.015,1681843487.64
1165,1500,1500,1500,885,0.015,1681843487.72
1166,1500,1500,1500,885,0.015,1681843487.80
1167,1500,1500,1500,885,0.015,1681843487.88
1168,1500,1500,1500,885,0.015,1681843487.96
1169,1500,1500,1500,885,0.015,1681843488.04
1170,1500,1500,1500,885,0.015,1681843488.12
1171,1500,1500,1500,885,0.015,1681843488.20
1172,1500,1500,1500,885,0.015,1681843488.28
1173,1500,1500,1500,885,0.015,1681843488.36
1174,1500,1500,1500,885,0.015,1681843488.45
1175,1500,1500,1500,885,0.015,1681843488.53
1176,,,,,,
1177,,,,,,
1178,1500,1500,1500,885,0.015,1681843488.72
1179,1500,1500,1500,885,0.015,1681843488.80
1180,1500,1500,1500,885,0.015,1681843488.88
1181,1500,1500,1500,885,0.015,1681843488.96
1182,1500,1500,1500,885,0.015,1681843489.04
1183,1500,1500,1500,885,0.015,1681843489.12
1184,1500,1500,1500,885,0.015,1681843489.20
1185,1500,1500,1500,885,0.015,1681843489.28
1186,1500,1500,1500,885,0.015,1681843489.36
1187,1500,1500,1500,885,0.015,1681843489.44
1188,1500,1500,1500,885,0.015,1681843489.52
1189,1500,1500,1500,885,0.015,1681843489.60
1190,1500,1500,1500,885,0.015,1681843489.68
1191,1500,1500,1500,885,0.015,1681843489.76
1192,1500,1500,1500,885,0.015,1681843489.84
1193,1500,1500,1500,885,0.015,1681843489.92
1194,1500,1500,1500,885,0.015,1681843490.00
1195,,,,,,
1196,1500,1500,1500,885,0.015,1681843490.14
1197,1500,1500,1500,885,0.015,1681843490.22
1198,1500,1500,1500,885,0.015,1681843490.30
1199,1500,1500,1500,885,0.015,1681843490.38
1200,1500,1500,1500,885,0.015,1681843490.46
1201,1500,1500,1500,885,0.015,1681843490.54
1202,1500,1500,1500,885,0.015,1681843490.62
1203,1500,1500,1500,885,0.015,1681843490.70
1204,1500,1500,1500,885,0.015,1681843490.78
1205,1500,1500,1500,885,0.016,1681843490.86
1206,1500,1500,1500,885,0.015,1681843490.94
1207,1500,1500,1500,885,0.016,1681843491.02
1208,1500,1500,1500,885,0.016,1681843491.10
1209,1500,1500,1500,885,0.015,1681843491.18
1210,1500,1500,1500,885,0.015,1681843491.26
1211,1500,1500,1500,885,0.015,1681843491.34
1212,1500,1500,1500,885,0.015,1681843491.42
1213,1500,1500,1500,885,0.016,1681843491.50
1214,,,,,,
1215,,,,,,
1216,,,,,,
1217,,,,,,
1218,1500,1500,1500,885,0.015,1681843491.69
1219,,,,,,
1220,105,-102,470,5,0.015,1681843491.85
1221,,,,,,
1222,1500,1500,1500,885,0.015,1681843492.01
1223,1500,1500,1500,885,0.015,1681843492.09
1224,1500,1500,1500,885,0.016,1681843492.17
1225,1500,1500,1500,885,0.015,1681843492.25
1226,1500,1500,1500,885,0.015,1681843492.33
1227,1500,1500,1500,885,0.015,1681843492.41
1228,1500,1500,1500,885,0.015,1681843492.49
1229,1500,1500,1500,885,0.015,1681843492.57
1230,1500,1500,1500,885,0.015,1681843492.65
1231,1500,1500,1500,885,0.015,1681843492.73
1232,1500,1500,1500,885,0.015,1681843492.81
1233,,,,,,
1234,,,,,,
1235,105,-103,470,3,0.015,1681843492.97
1236,,,,,,
1237,1500,1500,1500,885,0.015,1681843493.13
1238,1500,1500,1500,885,0.016,1681843493.21
1239,1500,1500,1500,885,0.015,1681843493.29
1240,1500,1500,1500,885,0.015,1681843493.37
1241,1500,1500,1500,885,0.015,1681843493.45
1242,1500,1500,1500,885,0.015,1681843493.53
1243,1500,1500,1500,885,0.015,1681843493.61
1244,1500,1500,1500,885,0.015,1681843493.69
1245,1500,1500,1500,885,0.015,1681843493.77
1246,1500,1500,1500,885,0.015,1681843493.85
1247,1500,1500,1500,885,0.015,1681843493.93
1248,1500,1500,1500,885,0.015,1681843494.01
1249,1500,1500,1500,885,0.015,1681843494.09
1250,1500,1500,1500,885,0.016,1681843494.17
1251,1500,1500,1500,885,0.015,1681843494.25
1252,1500,1500,1500,885,0.015,1681843494.33
1253,,,,,,
1254,1500,1500,1500,885,0.016,1681843494.40
1255,,,,,,
1256,1500,1500,1500,885,0.015,1681843494.56
1257,1500,1500,1500,885,0.015,1681843494.64
1258,1500,1500,1500,885,0.016,1681843494.72
1259,1500,1500,1500,885,0.016,1681843494.80
1260,1500,1500,1500,885,0.016,1681843494.88
1261,1500,1500,1500,885,0.016,1681843494.96
1262,1500,1500,1500,885,0.016,1681843495.04
1263,1500,1500,1500,885,0.016,1681843495.12
1264,1500,1500,1500,885,0.015,1681843495.20
1265,1500,1500,1500,885,0.015,1681843495.28
1266,1500,1500,1500,885,0.015,1681843495.36
1267,1500,1500,1500,885,0.015,1681843495.44
1268,1500,1500,1500,885,0.015,1681843495.52
1269,1500,1500,1500,885,0.015,1681843495.60
1270,1500,1500,1500,885,0.015,1681843495.68
1271,1500,1500,1500,885,0.015,1681843495.76
1272,1500,1500,1500,885,0.015,1681843495.82
1273,1500,1500,1500,885,0.015,1681843495.90
1274,1500,1500,1500,885,0.015,1681843495.98
1275,1500,1500,1500,885,0.015,1681843496.06
1276,1500,1500,1500,885,0.015,1681843496.14
1277,1500,1500,1500,885,0.015,1681843496.22
1278,1500,1500,1500,885,0.015,1681843496.30
1279,1500,1500,1500,885,0.015,1681843496.38
1280,1500,1500,1500,885,0.015,1681843496.46
1281,1500,1500,1500,885,0.015,1681843496.54
1282,1500,1500,1500,885,0.015,1681843496.62
1283,1500,1500,1500,885,0.015,1681843496.70
1284,1500,1500,1500,885,0.015,1681843496.78
1285,1500,1500,1500,885,0.015,1681843496.86
1286,1500,1500,1500,885,0.015,1681843496.94
1287,1500,1500,1500,885,0.015,1681843497.02
1288,1500,1500,1500,885,0.015,1681843497.10
1289,1500,1500,1500,885,0.015,1681843497.18
1290,1500,1500,1500,885,0.015,1681843497.26
1291,,,,,,
1292,1500,1500,1500,885,0.015,1681843497.41
1293,1500,1500,1500,885,0.015,1681843497.49
1294,1500,1500,1500,885,0.015,1681843497.57
1295,1500,1500,1500,885,0.015,1681843497.65
1296,1500,1500,1500,885,0.015,1681843497.73
1297,1500,1500,1500,885,0.015,1681843497.81
1298,1500,1500,1500,885,0.015,1681843497.89
1299,1500,1500,1500,885,0.015,1681843497.97
1300,1500,1500,1500,885,0.015,1681843498.05
1301,1500,1500,1500,885,0.015,1681843498.13
1302,1500,1500,1500,885,0.015,1681843498.21
1303,1500,1500,1500,885,0.015,1681843498.29
1304,1500,1500,1500,885,0.015,1681843498.37
1305,1500,1500,1500,885,0.015,1681843498.45
1306,1500,1500,1500,885,0.015,1681843498.53
1307,1500,1500,1500,885,0.015,1681843498.61
1308,1500,1500,1500,885,0.015,1681843498.69
1309,1500,1500,1500,885,0.015,1681843498.77
1310,,,,,,
1311,,,,,,
1312,1500,1500,1500,885,0.015,1681843498.94
1313,1500,1500,1500,885,0.015,1681843499.02
1314,1500,1500,1500,885,0.015,1681843499.10
1315,1500,1500,1500,885,0.015,1681843499.18
1316,1500,1500,1500,885,0.015,1681843499.26
1317,1500,1500,1500,885,0.015,1681843499.34
1318,1500,1500,1500,885,0.015,1681843499.42
1319,1500,1500,1500,885,0.015,1681843499.50
1320,1500,1500,1500,885,0.015,1681843499.58
1321,1500,1500,1500,885,0.015,1681843499.66
1322,1500,1500,1500,885,0.015,1681843499.74
1323,1500,1500,1500,885,0.015,1681843499.82
1324,1500,1500,1500,885,0.015,1681843499.90
1325,1500,1500,1500,885,0.015,1681843499.98
1326,1500,1500,1500,885,0.015,1681843500.06
1327,1500,1500,1500,885,0.015,1681843500.14
1328,1500,1500,1500,885,0.015,1681843500.22
1329,,,,,,
1330,,,,,,
1331,1500,1500,1500,885,0.015,1681843500.41
1332,1500,1500,1500,885,0.015,1681843500.49
1333,1500,1500,1500,885,0.015,1681843500.57
1334,1500,1500,1500,885,0.015,1681843500.65
1335,1500,1500,1500,885,0.015,1681843500.73
1336,1500,1500,1500,885,0.015,1681843500.81
1337,1500,1500,1500,885,0.015,1681843500.89
1338,1500,1500,1500,885,0.015,1681843500.97
1339,1500,1500,1500,885,0.015,1681843501.05
1340,1500,1500,1500,885,0.015,1681843501.13
1341,1500,1500,1500,885,0.015,1681843501.21
1342,1500,1500,1500,885,0.015,1681843501.29
1343,1500,1500,1500,885,0.015,1681843501.37
1344,1500,1500,1500,885,0.015,1681843501.45
1345,1500,1500,1500,885,0.015,1681843501.53
1346,1500,1500,1500,885,0.015,1681843501.61
1347,1500,1500,1500,885,0.015,1681843501.69
1348,,,,,,
1349,,,,,,
1350,,,,,,
1351,,,,,,
1352,1500,1500,1500,885,0.015,1681843501.89
1353,,,,,,
1354,61,-72,467,-855,0.015,1681843502.05
1355,,,,,,
1356,1500,1500,1500,885,0.015,1681843502.21
1357,1500,1500,1500,885,0.015,1681843502.29
1358,1500,1500,1500,885,0.015,1681843502.37
1359,1500,1500,1500,885,0.015,1681843502.45
1360,1500,1500,1500,885,0.015,1681843502.53
1361,1500,1500,1500,885,0.015,1681843502.61
1362,1500,1500,1500,885,0.015,1681843502.69
1363,1500,1500,1500,885,0.015,1681843502.77
1364,1500,1500,1500,885,0.015,1681843502.85
1365,1500,1500,1500,885,0.015,1681843502.93
1366,1500,1500,1500,885,0.015,1681843503.01
1367,,,,,,
1368,,,,,,
1369,1500,1500,1500,885,0.015,1681843503.15
1370,,,,,,
1371,1500,1500,1500,885,0.015,1681843503.31
1372,1500,1500,1500,885,0.015,1681843503.39
1373,1500,1500,1500,885,0.015,1681843503.47
1374,1500,1500,1500,885,0.015,1681843503.55
1375,1500,1500,1500,885,0.015,1681843503.63
1376,1500,1500,1500,885,0.015,1681843503.71
1377,1500,1500,1500,885,0.015,1681843503.79
1378,1500,1500,1500,885,0.015,1681843503.87
1379,1500,1500,1500,885,0.015,1681843503.95
1380,1500,1500,1500,885,0.015,1681843504.03
1381,1500,1500,1500,885,0.015,1681843504.11
1382,1500,1500,1500,885,0.015,1681843504.19
1383,1500,1500,1500,885,0.015,1681843504.27
1384,1500,1500,1500,885,0.015,1681843504.35
1385,1500,1500,1500,885,0.015,1681843504.43
1386,1500,1500,1500,885,0.015,1681843504.51
1387,,,,,,
1388,,,,,,
1389,,,,,,
1390,,,,,,
1391,1500,1500,1500,885,0.015,1681843504.78
1392,1500,1500,1500,885,0.015,1681843504.86
1393,1500,1500,1500,885,0.015,1681843504.94
1394,1500,1500,1500,885,0.015,1681843505.02
1395,1500,1500,1500,885,0.015,1681843505.10
1396,1500,1500,1500,885,0.015,1681843505.18
1397,1500,1500,1500,885,0.015,1681843505.26
1398,1500,1500,1500,885,0.015,1681843505.34
1399,1500,1500,1500,885,0.015,1681843505.42
1400,1500,1500,1500,885,0.015,1681843505.50
1401,1500,1500,1500,885,0.015,1681843505.58
1402,1500,1500,1500,885,0.015,1681843505.66
1403,1500,1500,1500,885,0.015,1681843505.74
1404,1500,1500,1500,885,0.015,1681843505.82
1405,1500,1500,1500,885,0.015,1681843505.90
1406,1500,1500,1500,885,0.015,1681843505.98
1407,1500,1500,1500,885,0.015,1681843506.06
1408,1500,1500,1500,885,0.015,1681843506.14
1409,1500,1500,1500,885,0.015,1681843506.22
1410,1500,1500,1500,885,0.015,1681843506.30
1411,1500,1500,1500,885,0.015,1681843506.38
1412,1500,1500,1500,885,0.015,1681843506.46
1413,1500,1500,1500,885,0.015,1681843506.54
1414,1500,1500,1500,885,0.015,1681843506.62
1415,1500,1500,1500,885,0.015,1681843506.70
1416,1500,1500,1500,885,0.015,1681843506.78
1417,1500,1500,1500,885,0.015,1681843506.86
1418,1500,1500,1500,885,0.015,1681843506.94
1419,1500,1500,1500,885,0.015,1681843507.02
1420,1500,1500,1500,885,0.015,1681843507.10
1421,1500,1500,1500,885,0.015,1681843507.18
1422,1500,1500,1500,885,0.015,1681843507.26
1423,1500,1500,1500,885,0.015,1681843507.34
1424,1500,1500,1500,885,0.015,1681843507.42
1425,,,,,,
1426,1500,1500,1500,885,0.015,1681843507.56
1427,1500,1500,1500,885,0.015,1681843507.65
1428,1500,1500,1500,885,0.015,1681843507.72
1429,1500,1500,1500,885,0.015,1681843507.80
1430,1500,1500,1500,885,0.015,1681843507.88
1431,1500,1500,1500,885,0.015,1681843507.96
1432,1500,1500,1500,885,0.015,1681843508.04
1433,1500,1500,1500,885,0.015,1681843508.12
1434,1500,1500,1500,885,0.015,1681843508.20
1435,1500,1500,1500,885,0.015,1681843508.28
1436,1500,1500,1500,885,0.015,1681843508.36
1437,1500,1500,1500,885,0.015,1681843508.44
1438,1500,1500,1500,885,0.015,1681843508.52
1439,1500,1500,1500,885,0.015,1681843508.60
1440,1500,1500,1500,885,0.015,1681843508.68
1441,1500,1500,1500,885,0.015,1681843508.76
1442,1500,1500,1500,885,0.015,1681843508.84
1443,1500,1500,1500,885,0.015,1681843508.92
1444,,,,,,
1445,,,,,,
1446,1500,1500,1500,885,0.015,1681843509.10
1447,1500,1500,1500,885,0.015,1681843509.18
1448,1500,1500,1500,885,0.015,1681843509.26
1449,1500,1500,1500,885,0.015,1681843509.34
1450,1500,1500,1500,885,0.015,1681843509.42
1451,1500,1500,1500,885,0.015,1681843509.50
1452,1500,1500,1500,885,0.015,1681843509.58
1453,1500,1500,1500,885,0.015,1681843509.66
1454,1500,1500,1500,885,0.015,1681843509.74
1455,1500,1500,1500,885,0.015,1681843509.82
1456,1500,1500,1500,885,0.015,1681843509.90
1457,1500,1500,1500,885,0.015,1681843509.98
1458,1500,1500,1500,885,0.015,1681843510.06
1459,1500,1500,1500,885,0.015,1681843510.14
1460,1500,1500,1500,885,0.015,1681843510.22
1461,1500,1500,1500,885,0.015,1681843510.30
1462,1500,1500,1500,885,0.015,1681843510.38
1463,,,,,,
1464,,,,,,
1465,1500,1500,1500,885,0.015,1681843510.59
1466,1500,1500,1500,885,0.014,1681843510.67
1467,1500,1500,1500,885,0.015,1681843510.75
1468,1500,1500,1500,885,0.015,1681843510.83
1469,1500,1500,1500,885,0.015,1681843510.91
1470,1500,1500,1500,885,0.015,1681843510.99
1471,1500,1500,1500,885,0.015,1681843511.07
1472,1500,1500,1500,885,0.015,1681843511.15
1473,1500,1500,1500,885,0.015,1681843511.23
1474,1500,1500,1500,885,0.015,1681843511.31
1475,1500,1500,1500,885,0.015,1681843511.39
1476,1500,1500,1500,885,0.015,1681843511.47
1477,1500,1500,1500,885,0.015,1681843511.55
1478,1500,1500,1500,885,0.015,1681843511.63
1479,1500,1500,1500,885,0.015,1681843511.71
1480,1500,1500,1500,885,0.015,1681843511.79
1481,1500,1500,1500,885,0.015,1681843511.87
1482,,,,,,
1483,,,,,,
1484,,,,,,
1485,-69,225,557,298,0.0,1681843511.98
1486,,,,,,
1487,-12,255,410,415,0.016,1681843512.13
1488,,,,,,
1489,,,,,,
1490,1500,1500,1500,885,0.015,1681843512.37
1491,1500,1500,1500,885,0.016,1681843512.45
1492,1500,1500,1500,885,0.016,1681843512.53
1493,1500,1500,1500,885,0.016,1681843512.61
